[
  { "name": "世博源购物中心", "lat": 31.1850, "lng": 121.4870, "type": "商场", "address": "浦东新区世博大道1368号" },
  { "name": "中华艺术宫地铁站", "lat": 31.1910, "lng": 121.4790, "type": "地铁8号线", "address": "浦东新区上南路205号" },
  { "name": "耀华路地铁站", "lat": 31.1800, "lng": 121.4860, "type": "地铁8号线", "address": "浦东新区耀华路" },
  { "name": "世博大道地铁站", "lat": 31.1870, "lng": 121.4900, "type": "地铁13号线", "address": "浦东新区世博大道" },
  { "name": "高科西路地铁站", "lat": 31.1960, "lng": 121.4980, "type": "地铁7号线", "address": "浦东新区高科西路" },
  { "name": "西岸凤巢AIT空间", "lat": 31.1730, "lng": 121.4550, "type": "商场", "address": "徐汇区龙腾大道2599号" },
  { "name": "龙耀路地铁站", "lat": 31.1760, "lng": 121.4510, "type": "地铁11号线", "address": "徐汇区龙耀路" },
  { "name": "云锦路地铁站", "lat": 31.1690, "lng": 121.4590, "type": "地铁11号线", "address": "徐汇区云锦路" },
  { "name": "龙水南路地铁站", "lat": 31.1650, "lng": 121.4500, "type": "地铁23号线", "address": "徐汇区龙水南路" },
  { "name": "龙阳路地铁站", "lat": 31.2080, "lng": 121.5600, "type": "地铁2/7/16/18号线", "address": "浦东新区龙阳路" },
  { "name": "张江高科地铁站", "lat": 31.2030, "lng": 121.6070, "type": "地铁2号线", "address": "浦东新区张江路" },
  { "name": "金科路地铁站", "lat": 31.2000, "lng": 121.6190, "type": "地铁2号线", "address": "浦东新区金科路" },
  { "name": "长泰广场", "lat": 31.2010, "lng": 121.6150, "type": "商场", "address": "浦东新区金科路2889号" }
]
